City_ID,City,Lat,Lng,Max Temp,Humidity,Cloudiness,Wind Speed,Country,Date
0,adamstown,-25.066,-130.1015,24.45,83,100,6.07,PN,1705890345
1,avarua,-21.2078,-159.775,28.03,65,20,3.6,CK,1705890346
2,chinde,26.8418,88.0763,6.17,67,8,0.89,NP,1705890347
3,ilhabela,-23.7781,-45.3581,23.25,90,27,1.83,BR,1705890347
4,waitangi,-43.9535,-176.5597,16.61,96,100,8.91,NZ,1705890348
5,tiksi,71.6872,128.8694,-28.58,92,100,10.99,RU,1705889859
6,hasaki,35.7333,140.8333,14.05,63,62,7.13,JP,1705890350
7,buka,40.8108,69.1986,2.77,66,100,0.2,UZ,1705890350
8,west island,-12.1568,96.8225,27.99,89,40,3.6,CC,1705890351
9,puerto natales,-51.7236,-72.4875,13.15,77,92,4.78,CL,1705890351
10,grytviken,-54.2811,-36.5092,0.2,81,60,3.62,GS,1705890353
11,thompson,55.7435,-97.8558,-16.91,78,100,3.09,CA,1705890354
12,klyuchi,52.2667,79.1667,-20.58,96,5,1.65,RU,1705890354
13,grand falls-windsor,48.9332,-55.6649,-1.94,92,93,0.89,CA,1705890356
14,hammerfest,70.6634,23.6821,-7.75,86,100,4.12,NO,1705890356
15,wailua homesteads,22.0669,-159.378,25.24,89,100,5.14,US,1705890357
16,ivanteyevka,55.9711,37.9208,-10.7,100,100,2.34,RU,1705890358
17,tomatlan,19.9333,-105.25,20.15,86,20,1.34,MX,1705890359
18,khandyga,62.6667,135.6,-29.61,97,100,2.09,RU,1705890359
19,salinopolis,-0.6136,-47.3561,26.63,88,22,4.01,BR,1705890360
20,port-aux-francais,-49.35,70.2167,5.64,81,53,14.08,TF,1705890361
21,hamilton,39.1834,-84.5333,-5.95,72,0,3.09,US,1705890096
22,chabahar,25.2919,60.643,20.59,59,67,3.12,IR,1705890362
23,invercargill,-46.4,168.35,21.32,58,76,2.2,NZ,1705890363
24,pariaman,-0.619,100.12,28.03,70,52,0.6,ID,1705890363
25,prince rupert,54.3161,-130.3201,4.83,100,100,2.57,CA,1705890365
26,chonchi,-42.6128,-73.8092,16.56,82,0,2.71,CL,1705890366
27,anadyr,64.75,177.4833,-13.72,92,75,3.0,RU,1705890367
28,talnakh,69.4865,88.3972,-11.55,95,100,3.7,RU,1705890367
29,harlingen,26.1906,-97.6961,9.41,99,100,2.57,US,1705890264
30,lihue,21.9789,-159.3672,25.58,89,100,5.14,US,1705890369
31,uturoa,-16.7333,-151.4333,26.57,77,100,2.25,PF,1705890370
32,ribeira grande,38.5167,-28.7,17.65,96,61,8.49,PT,1705890371
33,dahab,28.501,34.5134,19.04,47,0,1.04,EG,1705890372
34,carauari,-4.8828,-66.8958,24.14,97,100,0.41,BR,1705890374
35,troitsko-pechorsk,62.7084,56.1964,-11.28,96,100,2.68,RU,1705890375
36,laojunmiao,39.8333,97.7333,-12.72,38,10,2.97,CN,1705890376
37,bam,29.106,58.357,10.06,37,0,1.68,IR,1705890377
38,ushuaia,-54.8,-68.3,10.79,71,0,11.32,AR,1705890378
39,suva,-18.1416,178.4415,31.71,70,75,5.14,FJ,1705890379
40,kerikeri,-35.2268,173.9474,25.23,72,100,1.84,NZ,1705890380
41,ulsteinvik,62.3432,5.8487,6.5,86,100,7.15,NO,1705890381
42,albany,42.6001,-73.9662,-6.44,74,8,1.34,US,1705890185
43,poronaysk,49.2167,143.1167,-18.71,83,100,1.23,RU,1705890384
44,oak island,33.9166,-78.1611,0.57,51,0,0.0,US,1705890385
45,bredasdorp,-34.5322,20.0403,18.97,82,100,6.98,ZA,1705890386
46,elverum,60.8819,11.5623,1.53,98,100,5.65,NO,1705890387
47,marsabit,2.3284,37.9899,22.55,39,69,3.08,KE,1705890388
48,hastings,50.8552,0.5729,12.77,90,100,20.22,GB,1705890389
49,nadi,-17.8,177.4167,31.0,74,75,7.2,FJ,1705890390
50,chancay,-11.5714,-77.2672,23.31,81,74,2.78,PE,1705890390
51,vorgashor,67.5833,63.95,-12.46,91,100,2.94,RU,1705890391
52,blackmans bay,-43.0167,147.3167,15.07,60,98,1.34,AU,1705890392
53,mana,5.6592,-53.7767,25.85,76,0,4.68,GF,1705890393
54,cuenca,-2.8833,-78.9833,15.07,82,75,1.03,EC,1705890394
55,kodinsk,58.6881,99.1844,-18.64,99,92,1.66,RU,1705890395
56,kyren,51.6828,102.1408,-18.36,83,25,0.45,RU,1705890395
57,minas de marcona,-15.2119,-75.1103,19.33,87,99,1.76,PE,1705890396
58,sievi,63.9,24.5,-0.35,87,100,6.09,FI,1705890195
59,manacapuru,-3.2997,-60.6206,25.77,89,100,0.95,BR,1705890398
60,iqaluit,63.7506,-68.5145,-20.15,70,75,2.06,CA,1705890399
61,kralendijk,12.15,-68.2667,26.99,78,0,6.69,BQ,1705890400
62,arkhangel'sk,64.5401,40.5433,-14.93,84,100,3.0,RU,1705890401
63,hermanus,-34.4187,19.2345,18.89,84,100,7.65,ZA,1705890402
64,formosa do rio preto,-11.0483,-45.1931,24.07,84,98,0.86,BR,1705890403
65,college,64.8569,-147.8028,-31.01,61,20,0.0,US,1705890403
66,port elizabeth,-33.918,25.5701,21.72,90,100,8.75,ZA,1705890404
67,kiunga,-6.1219,141.2906,28.92,74,100,2.43,PG,1705890405
68,edinburgh of the seven seas,-37.0676,-12.3116,18.67,80,59,9.93,SH,1705890405
69,st. paul,44.9444,-93.0933,-6.18,69,0,7.72,US,1705890207
70,semera,11.501,41.201,20.17,68,100,4.29,ET,1705890407
71,aasiaat,68.7098,-52.8699,-20.78,83,100,7.29,GL,1705890408
72,jamestown,42.097,-79.2353,-4.23,79,40,3.6,US,1705890185
73,antonio enes,-16.2325,39.9086,24.36,96,100,4.67,MZ,1705890410
74,lewistown,40.5992,-77.5714,-3.99,63,0,2.57,US,1705890220
75,sanya,18.2431,109.505,27.09,54,0,4.0,CN,1705890412
76,manokwari,-0.8667,134.0833,24.27,94,100,2.29,ID,1705890412
77,lebu,-37.6167,-73.65,13.88,91,2,6.97,CL,1705890413
78,qaqortoq,60.7167,-46.0333,-15.6,63,54,3.24,GL,1705890414
79,ivdel',60.6911,60.4206,-4.34,96,94,2.24,RU,1705890415
80,cidreira,-30.1811,-50.2056,22.01,67,100,5.86,BR,1705890416
81,kingston,17.997,-76.7936,27.53,74,20,3.6,JM,1705890342
82,namibe,-15.1961,12.1522,21.73,79,20,2.45,AO,1705890417
83,long beach,33.767,-118.1892,16.32,92,40,4.63,US,1705890419
84,williams lake,52.1415,-122.1445,-3.24,100,75,1.54,CA,1705890419
85,punta arenas,-53.15,-70.9167,12.06,82,75,2.57,CL,1705890338
86,tofol,5.3248,163.0078,28.88,79,75,7.2,FM,1705890420
87,vadso,70.0744,29.7487,-11.91,92,100,5.14,NO,1705890421
88,st. john's,47.5649,-52.7093,-1.23,91,75,6.26,CA,1705890422
89,sola,-13.8833,167.55,28.04,77,97,4.51,VU,1705890423
90,yellowknife,62.456,-114.3525,-31.36,75,20,3.09,CA,1705890424
91,badger,64.8,-147.5333,-31.05,66,0,0.0,US,1705890424
92,yanbu,24.0891,38.0637,20.02,73,0,1.54,SA,1705890425
93,queenstown,-31.8976,26.8753,15.47,78,0,1.19,ZA,1705890246
94,utrik,11.2278,169.8474,26.32,79,74,9.53,MH,1705890426
95,flin flon,54.7682,-101.865,-19.43,95,62,2.81,CA,1705890427
96,georgetown,5.4112,100.3354,28.96,77,20,2.57,MY,1705890426
97,margaret river,-33.95,115.0667,21.72,56,18,3.74,AU,1705890429
98,puerto baquerizo moreno,-0.9,-89.6,25.34,89,49,4.92,EC,1705890430
99,porto novo,6.4965,2.6036,27.9,88,0,1.11,BJ,1705890431
100,puerto deseado,-47.7503,-65.8938,17.96,53,54,6.19,AR,1705890432
101,perur,10.9667,76.9,22.45,83,20,1.03,IN,1705890433
102,bilibino,68.0546,166.4372,-15.51,97,100,1.33,RU,1705890434
103,yuzhno-kurilsk,44.0306,145.8556,-2.01,69,100,3.53,RU,1705890435
104,las khorey,11.1595,48.1967,23.85,65,66,4.64,SO,1705890436
105,paradip garh,20.3167,86.6167,20.59,78,73,4.8,IN,1705890437
106,chichicastenango,14.9333,-91.1167,14.49,96,24,1.34,GT,1705890438
107,enewetak,11.3474,162.3373,26.58,77,35,10.67,MH,1705890439
108,olonkinbyen,70.9221,-8.7187,-2.38,89,100,11.58,SJ,1705890439
109,berezovyy,51.6667,135.7,-21.3,73,23,0.68,RU,1705890440
110,longyearbyen,78.2186,15.6401,-8.09,62,0,3.6,SJ,1705890441
111,sinabang,2.4803,96.3801,27.66,77,36,1.27,ID,1705890442
112,hulan ergi,47.2042,123.6333,-20.73,72,27,2.36,CN,1705890443
113,knysna,-34.0363,23.0471,20.53,87,99,2.43,ZA,1705890444
114,ta`u,-14.2336,-169.5144,28.91,71,25,4.33,AS,1705890445
115,phan rang-thap cham,11.5667,108.9833,26.86,56,46,4.28,VN,1705890446
116,crane,31.3974,-102.3501,4.12,92,63,7.62,US,1705890447
117,puerto ayora,-0.7393,-90.3518,25.86,97,59,0.45,EC,1705890447
118,tyuratam,45.6507,63.3156,-5.6,67,100,7.48,KZ,1705890448
119,bella vista,36.4295,-94.2316,0.45,41,100,7.2,US,1705890323
120,mahibadhoo,3.7833,72.9667,27.81,78,16,6.04,MV,1705890449
121,yaren,-0.5472,166.916,29.46,71,11,6.35,NR,1705890450
122,alesund,62.4723,6.1549,6.51,65,75,9.26,NO,1705890451
123,skowhegan,44.7651,-69.7192,-10.31,74,4,2.15,US,1705890452
124,el granada,37.5027,-122.4694,16.57,87,100,8.23,US,1705890453
125,moroto,2.5345,34.6666,21.33,48,81,1.61,UG,1705890454
126,changyon,38.2508,125.0961,-9.32,72,100,10.71,KP,1705890455
127,schmitten,50.2667,8.45,3.13,89,74,5.69,DE,1705890456
128,el casar,38.5309,-5.9251,6.66,88,6,1.24,ES,1705890457
129,broome,42.2506,-75.833,-6.79,80,40,0.0,US,1705890458
130,kavaratti,10.5669,72.642,27.79,73,65,4.44,IN,1705890459
131,el calafate,-50.3408,-72.2768,13.92,80,67,3.8,AR,1705890459
132,luocheng,29.3848,104.0286,4.21,65,97,1.76,CN,1705890460
133,shangrao,28.4532,117.9686,2.09,91,100,4.87,CN,1705890461
134,pyapon,16.2833,95.6833,21.29,49,6,2.78,MM,1705890461
135,port mathurin,-19.6833,63.4167,28.25,86,37,8.65,MU,1705890462
136,fort mcmurray,56.7268,-111.381,-18.23,71,100,2.06,CA,1705890413
137,isla mujeres,21.2311,-86.731,24.03,76,100,8.55,MX,1705890464
138,ilabaya,-17.4208,-70.5133,22.18,75,57,1.79,PE,1705890464
139,isafjordur,66.0755,-23.124,-5.46,87,100,6.1,IS,1705890465
140,princeville,45.7668,-61.2985,-1.37,88,100,4.63,CA,1705890466
141,soria,41.6667,-2.6667,1.17,100,52,2.85,ES,1705890467
142,atafu village,-8.5421,-172.5159,29.68,72,42,4.36,TK,1705890468
143,ouadda,8.0777,22.4007,16.63,16,82,1.62,CF,1705890469
144,luderitz,-26.6481,15.1594,17.48,79,0,5.23,NA,1705890470
145,sittwe,20.15,92.9,20.58,59,98,3.47,MM,1705890471
146,veinticinco de mayo,-35.4323,-60.1727,19.99,64,0,0.89,AR,1705890471
147,nalut,30.3333,10.85,8.29,72,0,7.09,LY,1705890473
148,broken hill,-31.95,141.4333,27.87,24,0,6.14,AU,1705890285
149,port saint john's,-31.6229,29.5448,21.04,89,6,3.9,ZA,1705890474
150,fale old settlement,-9.3852,-171.2468,29.82,71,19,3.67,TK,1705890475
151,tommot,58.9564,126.2925,-13.32,93,100,5.01,RU,1705890475
152,murghob,38.1702,73.9667,-19.96,53,7,2.38,TJ,1705890476
153,tutoia,-2.7619,-42.2744,27.36,83,12,4.55,BR,1705890477
154,bayanhongor,46.7167,100.1167,-25.87,76,42,2.11,MN,1705890477
155,whitehorse,60.7161,-135.0538,-21.57,77,100,1.54,CA,1705890478
156,kete krachi,7.7939,-0.0498,27.26,39,0,1.09,GH,1705890479
157,nova sintra,14.8667,-24.7167,20.34,69,99,3.52,CV,1705890480
158,ordynskoye,54.3656,81.8994,-21.71,98,9,1.22,RU,1705890481
159,new norfolk,-42.7826,147.0587,15.72,45,94,1.77,AU,1705890481
160,neryungri,56.6709,124.6491,-18.51,97,100,1.24,RU,1705890259
161,vilyuysk,63.7553,121.6247,-25.56,98,100,3.13,RU,1705890483
162,luohe,33.5717,114.0353,-3.11,33,100,3.36,CN,1705890484
163,akureyri,65.6835,-18.0878,-18.43,96,33,1.96,IS,1705890484
164,dongola,19.1667,30.4833,18.0,20,0,4.64,SD,1705890485
165,vilyuchinsk,52.9306,158.4028,-5.85,80,33,1.44,RU,1705890486
166,hawaiian paradise park,19.5933,-154.9731,26.73,74,75,7.2,US,1705890342
167,boguchany,58.3814,97.4531,-18.97,98,93,1.34,RU,1705890489
168,udachny,66.4167,112.4,-14.75,84,100,6.98,RU,1705890489
169,bilozerka,46.6248,32.4425,-1.39,93,13,2.85,UA,1705890490
170,yarmouth,41.7057,-70.2286,-1.69,62,0,9.83,US,1705890491
171,puerto ayacucho,5.6639,-67.6236,29.95,48,81,3.07,VE,1705890492
172,warrnambool,-38.3833,142.4833,17.38,56,100,5.91,AU,1705890230
173,leander,30.5788,-97.8531,3.11,93,100,4.02,US,1705890493
174,auki,-8.7676,160.7034,29.03,77,69,2.75,SB,1705890494
175,mount isa,-20.7333,139.5,32.87,55,100,3.6,AU,1705890495
176,cabedelo,-6.9811,-34.8339,27.37,77,1,4.9,BR,1705890496
177,acarau,-2.8856,-40.12,27.23,81,7,4.99,BR,1705890497
178,vila franca do campo,37.7167,-25.4333,18.27,99,94,3.96,PT,1705890498
179,parun,35.4207,70.9221,-6.58,20,26,4.31,AF,1705890499
180,flying fish cove,-10.4217,105.6791,28.82,78,75,3.09,CX,1705890500
181,taoudenni,22.6783,-3.9836,20.56,10,100,4.74,ML,1705890501
182,ancud,-41.8697,-73.8203,13.77,83,0,1.38,CL,1705890502
183,pathein,16.7833,94.7333,22.6,47,11,3.11,MM,1705890504
184,stanley,54.868,-1.6985,9.01,69,40,17.49,GB,1705890504
185,at taj,24.2049,23.2857,12.52,66,71,4.66,LY,1705890506
186,castillos,-34.1667,-53.8333,17.75,75,6,3.16,UY,1705890506
187,belyy yar,53.6039,91.3903,-28.06,83,20,0.0,RU,1705890507
188,san antonio de pale,-1.4014,5.6325,27.07,83,0,3.95,GQ,1705890509
189,murzuq,25.9155,13.9184,12.39,64,29,4.32,LY,1705890511
190,bethel,41.3712,-73.414,-3.8,66,0,0.89,US,1705890512
191,el abiodh sidi cheikh,32.893,0.5484,7.0,69,3,2.16,DZ,1705890512
192,margate,51.3813,1.3862,12.05,91,100,9.83,GB,1705890513
193,uliastay,47.7417,96.8444,-23.19,67,2,2.65,MN,1705890514
194,ar rutbah,33.0381,40.2848,12.3,52,100,3.66,IQ,1705890515
195,sandnessjoen,66.0217,12.6316,-0.71,81,100,8.26,NO,1705890516
196,bereeda,11.8704,51.0579,23.73,74,42,5.1,SO,1705890517
197,belmonte,-15.8631,-38.8828,26.69,87,100,4.49,BR,1705890518
198,hilo,19.7297,-155.09,26.85,76,75,7.2,US,1705890520
199,segovia,41.1667,-4.0,2.46,73,52,2.16,ES,1705890521
200,chokwe,-24.5333,32.9833,19.6,93,0,1.36,MZ,1705890522
201,maun,-19.9833,23.4167,19.13,54,0,2.36,BW,1705890523
202,tezu,27.9167,96.1667,16.08,35,0,0.55,IN,1705890524
203,rikaze,29.25,88.8833,-5.5,30,0,1.33,CN,1705890525
204,kone,-21.0595,164.8658,31.45,63,100,2.03,NC,1705890526
205,dunedin,-45.8742,170.5036,19.33,84,80,2.68,NZ,1705890421
206,lompoc,34.6391,-120.4579,15.4,79,0,6.69,US,1705890530
207,espanola,35.9911,-106.0806,4.58,82,84,0.21,US,1705890237
208,eureka,40.8021,-124.1637,14.4,78,100,4.02,US,1705890532
209,miquelon,47.0975,-56.3814,-1.0,80,89,7.45,PM,1705890533
210,akrehamn,59.2667,5.1833,9.14,87,100,14.4,NO,1705890533
211,al ghayzah,16.2079,52.176,21.5,36,100,2.37,YE,1705890534
212,zhangye,38.9342,100.4517,-11.0,45,93,1.16,CN,1705890535
213,papatowai,-46.5619,169.4708,18.48,72,48,2.53,NZ,1705890536
214,kampong speu,11.5,104.3333,27.44,59,100,1.65,KH,1705890537
215,codrington,-38.2667,141.9667,18.21,52,100,6.37,AU,1705890537
216,bopolu,7.0667,-10.4875,23.24,98,7,0.82,LR,1705890538
217,petropavlovsk-kamchatsky,53.0452,158.6483,-6.67,77,75,4.0,RU,1705890539
218,nova vicosa,-17.8919,-39.3719,25.24,92,100,5.87,BR,1705890540
219,dryden,49.7833,-92.7503,-9.84,79,100,3.6,CA,1705890542
220,selkirk,50.1436,-96.8845,-8.85,86,100,0.22,CA,1705890491
221,xilin hot,43.9667,116.0333,-25.2,88,10,1.31,CN,1705890543
222,banda aceh,5.5577,95.3222,27.72,76,21,4.41,ID,1705890544
223,urzhar,47.093,81.6294,-13.81,67,0,2.34,KZ,1705890546
224,iskateley,67.6803,53.1512,-24.43,98,76,2.68,RU,1705890547
225,walvis bay,-22.9575,14.5053,19.49,93,13,2.22,NA,1705890547
226,bellerive-sur-allier,46.1163,3.4034,6.32,89,93,3.51,FR,1705890549
227,popondetta,-8.7537,148.2534,32.82,56,100,1.28,PG,1705890550
228,tongchuan,35.0806,109.0897,-9.46,47,16,1.76,CN,1705890551
229,newman,37.3138,-121.0208,15.64,83,100,4.47,US,1705890552
230,franceville,-1.6333,13.5836,23.74,82,99,1.65,GA,1705890552
231,pacific grove,36.6177,-121.9166,14.82,84,75,2.68,US,1705890553
232,judenburg,47.1667,14.6667,-3.99,73,65,1.76,AT,1705890554
233,torun,53.0137,18.5981,2.11,72,97,1.34,PL,1705890555
234,macusani,-14.0833,-70.4333,3.93,90,76,2.06,PE,1705890561
235,kaiama,9.6225,3.9481,22.88,11,0,2.4,NG,1705890561
236,colonia,50.9333,6.95,9.22,80,75,7.72,DE,1705890488
237,port blair,11.6667,92.75,26.02,73,10,2.57,IN,1705890563
238,haiku-pauwela,20.9219,-156.3051,26.01,69,40,4.63,US,1705890564
239,nemuro,43.3236,145.575,-1.34,64,79,6.23,JP,1705890565
240,rusk,31.796,-95.1502,3.84,49,40,3.6,US,1705890566
241,zapala,-38.8992,-70.0544,24.23,27,11,3.94,AR,1705890566
242,charters towers,-20.1,146.2667,34.47,39,100,3.44,AU,1705890567
243,boa vista,2.8197,-60.6733,27.99,61,0,6.69,BR,1705890568
244,kodiak,57.79,-152.4072,-2.27,86,100,11.83,US,1705890569
245,portland,45.5234,-122.6762,8.89,95,100,8.23,US,1705889795
246,waghai,20.7667,73.4833,16.91,31,86,1.8,IN,1705890572
247,sao felix do xingu,-6.6447,-51.995,23.77,92,59,0.52,BR,1705890577
248,callao,-12.0667,-77.15,26.51,78,40,8.23,PE,1705890578
249,saint-philippe,-21.3585,55.7679,24.77,88,100,2.72,RE,1705890579
250,arrifes,37.7667,-25.7,17.18,100,75,4.63,PT,1705890579
251,east london,-33.0153,27.9116,21.83,76,40,5.16,ZA,1705890581
252,hithadhoo,-0.6,73.0833,28.56,73,16,4.45,MV,1705890581
253,keflavik,64.0049,-22.5624,-4.76,74,0,12.35,IS,1705890582
254,port lincoln,-34.7333,135.8667,21.31,61,0,6.69,AU,1705890583
255,kogalym,62.2654,74.4791,-8.0,80,100,10.2,RU,1705890583
256,marat,25.0701,45.4615,14.62,41,1,4.49,SA,1705890584
257,lobujya,27.95,86.8167,-13.73,22,0,2.32,NP,1705890585
258,price,39.5994,-110.8107,1.73,86,100,0.0,US,1705890585
259,aksu,41.1231,80.2644,-6.99,58,98,1.87,CN,1705890586
260,gizo,-8.103,156.8419,30.1,74,80,5.31,SB,1705890587
261,san carlos del zulia,9.0,-71.9135,25.89,75,3,3.09,VE,1705890588
262,saint-pierre,-21.3393,55.4781,24.82,83,0,2.57,RE,1705890589
263,rumphi,-11.0186,33.8575,19.01,99,100,0.68,MW,1705890590
264,uribia,11.7139,-72.266,26.78,75,1,9.02,CO,1705890591
265,penhalonga,-18.8911,32.6978,12.65,84,2,1.41,ZW,1705890592
266,malabar,-33.9667,151.25,25.1,66,75,9.26,AU,1705890593
267,ilulissat,69.2167,-51.1,-13.99,51,100,6.69,GL,1705890594
268,semibratovo,57.3046,39.5369,-17.08,96,23,3.13,RU,1705890595
269,mugia,43.1041,-9.2179,15.51,93,84,12.7,ES,1705890595
270,mount vernon,40.9126,-73.8371,-2.2,54,0,6.17,US,1705890596
271,tsiombe,-25.3,45.4833,23.15,95,18,2.68,MG,1705890597
272,igarape miri,-1.975,-48.9597,24.65,95,19,1.49,BR,1705890597
273,mincivan,39.0294,46.7185,8.21,83,100,0.43,AZ,1705890598
274,ofunato,39.0717,141.7167,5.27,88,100,3.94,JP,1705890599
275,greymouth,-42.4667,171.2,21.15,70,99,3.04,NZ,1705890600
276,masuguru,-11.3667,38.4167,22.38,98,100,0.98,TZ,1705890601
277,nuuk,64.1835,-51.7216,-6.17,95,100,4.24,GL,1705890601
278,khovd,48.0056,91.6419,-20.11,87,6,0.44,MN,1705890602
279,ust-nera,64.5667,143.2,-39.29,98,97,3.33,RU,1705890603
280,lazaro cardenas,17.9583,-102.2,24.91,80,45,0.97,MX,1705890604
281,tual,-5.6667,132.75,28.43,75,100,6.26,ID,1705890605
282,jinghong,21.991,100.7341,21.69,44,42,0.91,CN,1705890607
283,road town,18.4167,-64.6167,26.02,78,40,4.12,VG,1705890608
284,vallenar,-28.5708,-70.7581,22.52,55,3,0.81,CL,1705890609
285,ghat,24.9647,10.1728,12.44,20,15,1.14,LY,1705890610
286,gorontalo,0.5412,123.0595,30.46,59,100,2.65,ID,1705890610
287,kargasok,59.0556,80.8572,-15.58,82,100,4.02,RU,1705890611
288,nagqu,31.5,92.0,-15.94,52,1,1.5,CN,1705890612
289,quellon,-43.1167,-73.6167,13.19,86,0,4.25,CL,1705890613
290,vegreville,53.5001,-112.0518,-12.61,81,100,4.12,CA,1705890614
291,nosy varika,-20.5833,48.5333,24.48,92,100,2.15,MG,1705890615
292,sault ste. marie,46.5168,-84.3333,-2.84,72,100,6.17,CA,1705890434
293,sarnia,42.9787,-82.4041,-5.93,53,75,5.66,CA,1705890606
294,lisakovsk,52.5369,62.4936,-12.33,91,99,3.97,KZ,1705890618
295,kuanda,56.3161,116.0806,-24.33,95,92,0.35,RU,1705890619
296,baiao,-2.7906,-49.6717,23.76,97,47,1.28,BR,1705890620
297,korla,41.7597,86.1469,-5.53,46,100,3.68,CN,1705890621
298,gunupur,19.0833,83.8167,23.97,71,79,1.55,IN,1705890622
299,port alfred,-33.5906,26.891,22.32,91,95,2.24,ZA,1705890426
300,sao bras de alportel,37.1531,-7.8875,11.27,82,0,3.6,PT,1705890623
301,bubaque,11.2833,-15.8333,25.5,78,100,6.59,GW,1705890625
302,cienfuegos,22.1461,-80.4356,20.08,77,80,4.63,CU,1705890522
303,bemidji,47.4736,-94.8803,-6.64,83,100,3.6,US,1705890404
304,acambay,19.9558,-99.8417,10.58,69,63,1.58,MX,1705890627
305,labrador city,52.9463,-66.9114,-20.05,77,40,2.57,CA,1705890628
306,harnai,30.1005,67.9374,9.31,28,0,1.55,PK,1705890629
307,tuchola,53.5879,17.8591,1.88,81,100,6.73,PL,1705890629
308,mccomb,31.2438,-90.4531,3.93,38,100,0.0,US,1705890631
309,naze,28.3667,129.4833,14.51,74,90,8.93,JP,1705890632
310,ola,59.5833,151.2833,-26.59,98,96,1.32,RU,1705890633
311,natal,-5.795,-35.2094,28.36,78,20,2.57,BR,1705890625
312,gebre guracha,9.8,38.4,13.08,71,99,1.11,ET,1705890635
313,tazovsky,67.4667,78.7,-7.87,95,100,4.45,RU,1705890636
314,urengoy,65.9667,78.3667,-9.79,88,100,7.76,RU,1705890636
315,menongue,-14.6585,17.691,16.82,83,100,0.45,AO,1705890582
316,batang,-6.4846,110.7083,28.95,75,100,3.16,ID,1705890638
317,tolanaro,-25.0319,46.9987,25.04,88,40,3.09,MG,1705890639
318,glace bay,46.1969,-59.957,-1.12,93,100,7.72,CA,1705890639
319,susuman,62.7833,148.1667,-41.68,100,98,1.34,RU,1705890640
320,praia da vitoria,38.7333,-27.0667,18.14,88,75,5.59,PT,1705890641
321,huai yot,7.7893,99.6348,27.79,74,59,2.16,TH,1705890482
322,cabo san lucas,22.8909,-109.9124,22.61,72,100,3.6,MX,1705890308
323,wanganui,-39.9333,175.05,24.77,86,100,4.02,NZ,1705890644
324,as sulayyil,20.4607,45.5779,13.14,39,0,3.81,SA,1705890645
325,west wodonga,-36.1257,146.8486,29.86,94,28,0.5,AU,1705890645
326,soufriere,13.8562,-61.0566,25.78,89,75,8.23,LC,1705890646
327,guangming,45.3333,122.7833,-16.91,59,2,3.66,CN,1705890647
328,mil'kovo,55.6078,37.7956,-10.78,100,100,2.92,RU,1705890647
329,vernon,50.2581,-119.2691,2.56,89,100,0.0,CA,1705890613
330,kapa'a,22.0752,-159.319,25.99,89,100,5.14,US,1705890649
331,turpan,42.9333,89.1667,-2.08,46,100,0.28,CN,1705890650
332,weno,7.4515,151.8468,28.97,79,100,5.66,FM,1705890652
333,i-n-salah,27.1935,2.4607,14.39,48,0,6.57,DZ,1705890653
334,asifabad,19.3667,79.2833,23.4,42,50,1.91,IN,1705890654
335,perros-guirec,48.8145,-3.4396,13.61,81,100,15.16,FR,1705890655
336,metu,8.3,35.5833,16.43,65,100,1.23,ET,1705890655
337,punta del este,-34.9667,-54.95,20.49,75,0,3.09,UY,1705890656
338,al khums,32.6486,14.2619,14.1,63,89,6.93,LY,1705890657
339,talent,42.2457,-122.7887,11.14,84,100,1.54,US,1705890657
340,omuo-ekiti,7.7583,5.7223,21.91,15,0,2.17,NG,1705890658
341,korkuteli,37.065,30.1957,8.0,94,100,2.82,TR,1705890659
342,tottori,35.5,134.2333,10.04,66,75,3.09,JP,1705890660
343,ciudad acuna,29.3232,-100.9522,6.16,80,100,5.14,MX,1705890660
344,sicuani,-14.2694,-71.2261,8.04,90,100,1.43,PE,1705890661
345,santo antonio,-6.3106,-35.4789,25.85,83,32,1.52,BR,1705890662
346,daru,-9.0763,143.2092,31.13,65,100,6.12,PG,1705890663
347,happy valley-goose bay,53.3168,-60.3315,-18.83,65,20,1.54,CA,1705890664
348,lithgow,-33.4833,150.15,15.36,45,4,3.1,AU,1705890521
349,gazojak,41.1875,61.4036,2.47,41,6,2.77,TM,1705890665
350,bartica,6.4,-58.6167,24.18,95,3,0.99,GY,1705890666
351,mili,6.0815,171.735,27.64,81,48,8.64,MH,1705890667
352,belo sur tsiribihina,-19.7,44.55,24.4,93,100,2.24,MG,1705890667
353,abepura,-2.6333,140.5833,30.45,62,20,4.63,ID,1705890668
354,tralee,52.2704,-9.7026,7.16,79,36,9.89,IE,1705890670
355,keskin,39.6731,33.6136,-3.55,80,80,4.31,TR,1705890671
356,kourou,5.1552,-52.6478,27.03,81,56,4.56,GF,1705890607
357,port isabel,26.0734,-97.2086,9.48,100,100,0.0,US,1705890672
358,lagoa,39.05,-27.9833,16.68,91,48,9.21,PT,1705890673
359,zalesovo,53.9939,84.7431,-23.74,97,8,1.06,RU,1705890674
360,ebon,4.582,168.6964,27.76,82,8,7.54,MH,1705890675
361,guanica,17.9716,-66.908,25.59,63,31,3.42,PR,1705890676
362,sanatoga,40.2451,-75.5952,-3.66,63,0,2.57,US,1705890677
363,tindouf,27.6711,-8.1474,14.25,21,0,2.57,DZ,1705890678
364,zhanaozen,43.3,52.8,2.65,80,100,7.8,KZ,1705890680
365,key largo,25.0865,-80.4473,20.0,59,100,11.44,US,1705890532
366,ciudad lazaro cardenas,17.9583,-102.2,24.91,80,45,0.97,MX,1705890682
367,sierra grande,-41.606,-65.3557,18.85,71,1,3.54,AR,1705890683
368,ust-tsilma,65.441,52.1498,-22.99,99,93,1.34,RU,1705890684
369,mizdah,31.4451,12.9801,9.29,74,78,5.11,LY,1705890685
370,ghadamis,30.1337,9.5007,10.31,70,0,6.37,LY,1705890686
371,chernyshevskiy,63.0128,112.4714,-11.96,91,100,5.68,RU,1705890686
372,inarajan village,13.2736,144.7484,29.54,73,100,8.64,GU,1705890688
373,leh,34.1667,77.5833,-9.05,32,0,1.03,IN,1705890689
374,alofi,-19.0595,-169.9187,29.94,70,100,4.63,NU,1705890689
375,petauke,-14.2426,31.3253,18.46,96,100,1.48,ZM,1705890691
376,kota bharu,6.1333,102.2386,24.99,94,40,5.36,MY,1705890691
377,rio grande,-32.035,-52.0986,22.06,56,100,6.66,BR,1705890363
378,tosontsengel,48.7567,98.2839,-27.69,88,11,0.5,MN,1705890693
379,vizinga,61.0749,50.1031,-22.51,96,75,2.73,RU,1705890694
380,constantia,44.1833,28.65,-6.62,81,60,4.89,RO,1705890696
381,calchaqui,-29.8877,-60.287,19.94,68,5,3.39,AR,1705890697
382,gadzhiyevo,69.2551,33.3362,-12.69,93,100,3.93,RU,1705890698
383,corinto,37.9407,22.9573,6.93,61,69,10.24,GR,1705890699
384,antofagasta,-23.65,-70.4,20.6,78,23,1.82,CL,1705890700
385,myeik,12.4333,98.6,26.49,49,19,2.71,MM,1705890700
386,kefamenanu,-9.4467,124.4781,29.06,60,89,6.29,ID,1705890702
387,sitka,57.0531,-135.33,2.94,87,100,4.12,US,1705890703
388,alice springs,-23.7,133.8833,37.34,36,40,3.13,AU,1705890704
389,bafoulabe,13.8065,-10.8321,25.1,8,71,2.58,ML,1705890704
390,cedeira,43.6797,-8.0209,14.66,83,99,12.32,ES,1705890706
391,kabba,7.8287,6.0731,22.42,15,0,0.88,NG,1705890707
392,novyy urengoy,66.0833,76.6333,-8.54,92,100,7.24,RU,1705890563
393,luanshya,-13.1367,28.4166,19.1,99,100,1.04,ZM,1705890708
394,clarksville,36.5298,-87.3595,-4.26,65,0,2.57,US,1705890606
395,kurchatov,51.6601,35.6521,-16.77,100,96,1.06,RU,1705890710
396,levuka,50.1834,-105.4011,-10.1,94,98,1.87,CA,1705890711
397,llandrindod wells,52.2416,-3.3787,9.1,84,87,10.76,GB,1705890712
398,afaahiti,-17.75,-149.2833,26.93,80,100,8.2,PF,1705890713
399,swift current,50.2834,-107.8014,-11.55,85,100,5.14,CA,1705890714
400,narrabri,-30.3167,149.7833,39.73,43,0,0.89,AU,1705890714
401,gaigeturi,33.4644,126.3183,2.03,64,75,7.2,KR,1705890715
402,launceston,-41.45,147.1667,20.64,39,40,7.2,AU,1705890716
403,peniche,39.3558,-9.3811,11.36,93,74,2.64,PT,1705890717
404,lorengau,-2.0226,147.2712,29.31,73,100,3.51,PG,1705890717
405,rexburg,43.826,-111.7897,3.08,80,100,2.57,US,1705890589
406,obo,5.3998,26.4869,19.04,20,100,1.14,CF,1705890719
407,dudinka,69.4058,86.1778,-11.32,97,100,3.12,RU,1705890720
408,howrah,22.5892,88.3103,11.0,87,40,4.12,IN,1705890721
409,bamboo flat,11.7,92.7167,26.05,73,11,2.57,IN,1705890722
410,vorkuta,67.5,64.0,-11.62,95,100,3.21,RU,1705890723
411,tegueste,28.5167,-16.3167,15.05,77,100,1.54,ES,1705890723
412,raduzhny,62.0961,77.475,-7.96,79,100,7.32,RU,1705890724
413,ha'il,27.5219,41.6907,14.01,54,0,4.12,SA,1705890725
414,revda,56.801,59.9303,-10.45,88,100,5.52,RU,1705890726
415,itaituba,-4.2761,-55.9836,25.17,92,74,0.35,BR,1705890727
416,holualoa,19.6228,-155.9522,24.91,74,100,3.6,US,1705890727
417,trinidad,-14.8333,-64.9,24.78,95,85,1.73,BO,1705890728
418,champerico,14.3,-91.9167,26.69,77,8,2.96,GT,1705890729
419,kirakira,-10.4544,161.9205,28.18,82,100,1.65,SB,1705890730
420,shagonar,51.5333,92.8,-29.96,94,64,0.99,RU,1705890731
421,van,38.4924,43.3831,3.64,70,75,3.09,TR,1705890732
422,meulaboh,4.1363,96.1285,27.68,74,23,0.88,ID,1705890733
423,caleta de carquin,-11.0925,-77.6267,23.26,82,99,3.47,PE,1705890734
424,tateyama,34.9833,139.8667,11.96,70,98,3.07,JP,1705890735
425,arraial do cabo,-22.9661,-42.0278,24.35,88,8,5.52,BR,1705890735
426,nagornyy,52.7959,83.5498,-22.07,97,5,1.05,RU,1705890736
427,macapa,0.0389,-51.0664,26.99,89,75,2.06,BR,1705890737
428,aykhal,66.0,111.5,-14.76,95,100,7.47,RU,1705890738
429,tucurui,-3.7661,-49.6725,25.3,88,98,1.52,BR,1705890739
430,iquique,-20.2208,-70.1431,23.02,80,5,1.37,CL,1705890740
431,yung shue wan,22.2333,114.1167,16.49,71,100,0.45,HK,1705890741
432,gembu,6.7,11.2667,15.43,19,5,1.4,NG,1705890742
433,new corella,7.6,125.8667,28.82,69,95,3.31,PH,1705890743
434,searcy,35.2506,-91.7363,-0.91,54,100,2.06,US,1705890744
435,zhaotong,27.3167,103.7167,-2.44,76,91,2.25,CN,1705890745
436,adrar,20.5022,-10.0711,21.28,10,100,4.56,MR,1705890746
437,malindi,-3.2175,40.1191,26.02,82,100,3.33,KE,1705890747
438,port augusta,-32.5,137.7667,33.56,20,9,2.66,AU,1705890545
439,melfi,40.9965,15.6514,1.94,86,61,1.5,IT,1705890748
440,cromer,52.9312,1.2989,13.0,78,90,15.48,GB,1705890749
441,sadovoye,47.7764,44.5089,-7.6,86,6,4.29,RU,1705890749
442,beau vallon,-20.4189,57.6953,27.13,83,40,2.57,MU,1705890750
443,smarhon,54.4791,26.3934,-5.45,84,100,7.78,BY,1705890751
444,kapuskasing,49.4169,-82.4331,-5.95,86,100,5.66,CA,1705890752
445,conde,-7.2597,-34.9075,26.7,83,20,2.57,BR,1705890753
446,luena,-11.7833,19.9167,19.1,94,99,2.57,AO,1705890754
447,al bayda',32.7627,21.7551,7.92,93,100,10.51,LY,1705890754
448,dubbo,-32.25,148.6167,32.07,27,0,3.09,AU,1705890755
449,magadan,59.5667,150.8,-26.93,98,68,1.77,RU,1705890757
450,envira,-7.3,-70.2167,22.04,97,90,0.95,BR,1705890757
451,mar del plata,-38.0023,-57.5575,20.53,69,0,7.15,AR,1705890758
452,masterton,-40.9597,175.6575,25.61,70,100,3.26,NZ,1705890759
453,sale,34.0389,-6.8166,11.46,100,0,1.54,MA,1705890761
454,kristiansund,63.1115,7.732,5.03,70,100,7.98,NO,1705890762
455,borgo val di taro,44.487,9.7658,3.34,21,2,0.99,IT,1705890762
456,amga,60.8953,131.9608,-22.94,96,100,2.42,RU,1705890763
457,dinkelsbuhl,49.0694,10.3199,2.14,65,79,4.44,DE,1705890764
458,kapiri mposhi,-13.9652,28.6809,16.94,99,92,1.41,ZM,1705890764
459,san fernando de apure,7.8878,-67.4724,27.26,49,5,2.8,VE,1705890765
460,saint-joseph,-21.3667,55.6167,24.21,87,93,2.89,RE,1705890766
461,butterworth,5.3991,100.3638,29.47,79,20,2.57,MY,1705890767
462,mount gambier,-37.8333,140.7667,21.93,41,19,4.97,AU,1705890768
463,littlefield,33.9173,-102.3249,1.88,71,90,5.27,US,1705890769
464,qalat,32.1058,66.9083,2.77,53,3,1.33,AF,1705890770
465,qamdo,31.1667,97.2333,-10.04,56,24,1.23,CN,1705890771
466,al aaroui,35.0118,-3.0045,11.14,93,0,3.09,MA,1705890772
467,punta de bombon,-17.1717,-71.7931,23.13,86,40,0.88,PE,1705890772
468,ribeira brava,32.65,-17.0667,17.62,77,5,3.57,PT,1705890773
469,kharp,66.8014,65.8081,-9.36,96,100,2.77,RU,1705890774
470,makarov,48.6333,142.8,-16.83,74,100,3.41,RU,1705890775
471,santa isabel,-23.3156,-46.2214,20.61,97,94,1.78,BR,1705890502
472,saint john,45.2727,-66.0677,-9.0,73,20,4.63,CA,1705890776
473,fukuecho,32.6881,128.8419,5.2,75,75,4.63,JP,1705890777
474,tuy hoa,13.0833,109.3,24.44,77,99,3.12,VN,1705890777
475,mount pearl,47.5166,-52.7813,-1.03,92,100,3.6,CA,1705890778
476,tilisarao,-32.7329,-65.2911,19.3,55,6,6.0,AR,1705890779
477,merizo village,13.2658,144.6691,29.31,73,100,8.35,GU,1705890780
478,moussoro,13.6408,16.4901,17.77,15,1,4.13,TD,1705890780
479,greenville,35.6127,-77.3663,-2.99,73,0,0.0,US,1705890240
480,grootfontein,-19.5667,18.1167,16.76,77,44,1.54,NA,1705890782
481,platnirovskaya,45.3953,39.3842,-3.38,93,8,4.36,RU,1705890782
482,ploudalmezeau,48.5333,-4.65,13.49,88,100,12.35,FR,1705890783
483,kampene,-3.6,26.6667,19.51,97,100,0.77,CD,1705890784
484,nizhneudinsk,54.9076,99.0276,-16.12,89,81,1.19,RU,1705890785
485,rio pardo,-29.9897,-52.3781,18.17,77,68,3.2,BR,1705890785
486,berezovo,63.9381,65.0419,-7.18,95,100,4.53,RU,1705890786
487,touros,-5.1989,-35.4608,27.02,80,13,3.35,BR,1705890787
488,petrolina de goias,-16.095,-49.3381,22.61,98,92,1.55,BR,1705890788
489,san luis de la loma,17.2706,-100.8939,24.9,77,2,2.24,MX,1705890789
490,gisborne,-38.6533,178.0042,19.25,96,100,5.56,NZ,1705890789
491,mabaruma,8.2,-59.7833,22.13,98,2,1.3,GY,1705890790
492,choibalsan,48.0667,114.5,-22.85,85,17,4.13,MN,1705890791
493,pandan,14.0453,124.1694,26.71,84,66,6.04,PH,1705890792
494,new glasgow,45.5834,-62.6486,-2.34,88,100,6.76,CA,1705890793
495,essingen,48.8086,10.0277,2.01,75,77,2.68,DE,1705890794
496,luanco,43.6152,-5.7934,18.71,75,95,3.81,ES,1705890795
497,mariehamn,60.0973,19.9348,0.92,93,75,9.77,AX,1705890797
498,halmeu,47.9667,23.0167,-3.41,86,87,2.15,RO,1705890798
499,puerto aysen,-45.4,-72.7,12.83,97,0,1.33,CL,1705890799
500,n'zeto,-7.2312,12.8666,25.63,76,20,3.04,AO,1705890800
501,collie,-33.3667,116.15,28.11,28,0,1.8,AU,1705890801
502,tres arroyos,-38.3739,-60.2798,20.39,35,2,3.86,AR,1705890803
503,pyin oo lwin,22.0333,96.4667,17.46,45,52,0.3,MM,1705890804
504,north platte,41.1239,-100.7654,-2.16,78,100,1.79,US,1705890804
505,pimentel,-6.8367,-79.9342,24.16,83,0,7.2,PE,1705890805
506,cerro largo,-28.1486,-54.7381,20.03,78,96,4.71,BR,1705890806
507,papao,-17.75,-149.55,27.59,73,100,9.55,PF,1705890808
508,iwanai,42.9744,140.5089,1.31,83,100,4.8,JP,1705890808
509,dalnegorsk,44.5604,135.5701,-6.89,91,100,3.13,RU,1705890809
510,san juan,-31.5375,-68.5364,27.18,40,85,2.54,AR,1705890810
511,buala,-8.145,159.5921,29.58,78,84,2.7,SB,1705890811
512,marovoay,-16.1,46.6333,22.97,94,100,1.6,MG,1705890812
513,ambodifotatra,-16.9833,49.85,26.79,81,96,4.37,MG,1705890813
514,ain leuh,33.2921,-5.3384,5.53,41,0,1.92,MA,1705890814
515,salekhard,66.53,66.6019,-11.07,95,100,6.17,RU,1705890815
516,tuba city,36.135,-111.2399,5.21,92,100,2.31,US,1705890816
517,hadibu,12.65,54.0333,23.3,75,100,5.93,YE,1705890816
518,lefkada,38.8275,20.7019,7.95,46,0,6.17,GR,1705890817
519,wakkanai,45.4094,141.6739,-5.01,90,100,11.83,JP,1705890819
520,namdrik,5.5994,168.1028,27.9,81,22,8.19,MH,1705890820
521,kittila,67.6647,24.8936,-3.92,100,100,6.17,FI,1705890821
522,ciudad melchor muzquiz,27.8833,-101.5167,4.66,70,100,2.03,MX,1705890822
523,beyneu,45.3167,55.2,-0.23,86,100,1.96,KZ,1705890822
524,eastham,41.8301,-69.9739,-1.7,63,69,6.26,US,1705890823
525,bonthe,7.5264,-12.505,26.08,85,10,1.8,SL,1705890824
526,dingzhou,38.5131,114.9956,-4.94,22,0,2.84,CN,1705890825
527,loikaw,19.6742,97.2094,21.46,25,6,0.82,MM,1705890826
528,hobyo,5.3505,48.5268,24.02,81,20,7.67,SO,1705890826
529,bayanaul,50.7889,75.6956,-17.36,70,0,1.69,KZ,1705890827
530,halden,59.1226,11.3871,3.24,98,100,9.89,NO,1705890828
531,inhambane,-23.865,35.3833,22.19,83,0,3.06,MZ,1705890828
532,nyurba,63.2842,118.3319,-11.42,94,100,4.44,RU,1705890800
533,argo,37.6333,22.7333,6.67,60,66,8.56,GR,1705890830
534,inderbor,48.55,51.7833,-6.12,89,100,7.49,KZ,1705890830
535,detva,48.5608,19.4195,-5.03,94,36,0.48,SK,1705890831
536,oguta,5.7089,6.8103,23.84,98,10,1.36,NG,1705890832
537,manikpur,25.0667,81.1167,12.07,38,1,1.1,IN,1705890833
538,ko pha ngan,9.7578,100.0291,27.38,73,18,2.15,TH,1705890834
539,zuni pueblo,35.0725,-108.8506,2.35,100,100,1.36,US,1705890834
540,priob'ye,62.5206,65.5964,-7.76,94,100,6.98,RU,1705890835
541,port macquarie,-31.4333,152.9167,26.05,63,9,8.77,AU,1705890836
542,ilula,-7.6766,36.0366,16.07,98,100,1.84,TZ,1705890836
543,bandon,51.7469,-8.7425,7.77,77,12,8.87,IE,1705890837
544,antsiranana,-12.2787,49.2917,25.66,83,100,7.13,MG,1705890838
545,hermosillo,29.0667,-110.9667,21.22,36,40,3.6,MX,1705890730
546,kuala kedah,6.1,100.3,26.99,83,20,1.54,MY,1705890840
547,le francois,14.6156,-60.9031,26.22,76,17,6.82,MQ,1705890841
548,tucupita,9.0622,-62.051,21.9,91,0,1.63,VE,1705890842
549,san ignacio de velasco,-16.3667,-60.95,23.6,95,67,1.91,BO,1705890842
550,nuku'alofa,-21.1333,-175.2,30.19,84,75,4.12,TO,1705890843
551,bac lieu,9.285,105.7244,28.17,63,15,9.04,VN,1705890844
552,an nuhud,12.7,28.4333,16.33,16,61,5.16,SD,1705890845
553,neiafu,-18.65,-173.9833,30.38,79,75,3.6,TO,1705890845
554,freetown,8.484,-13.2299,25.6,86,4,2.06,SL,1705890846
555,opuwo,-18.0607,13.84,19.91,49,64,2.04,NA,1705890848
556,pauini,-7.7136,-66.9764,22.99,97,100,0.88,BR,1705890848
557,rouissat,31.9243,5.3502,11.04,71,31,2.06,DZ,1705890849
558,dalnerechensk,45.9339,133.7225,-16.6,94,100,3.88,RU,1705890850
559,al qusayr,34.5091,36.5798,12.29,51,71,2.04,SY,1705890851
560,souillac,-20.5167,57.5167,27.21,83,40,2.57,MU,1705890852
561,ceeldheer,3.8488,47.1806,23.38,76,42,7.4,SO,1705890852
562,saipan,15.1355,145.701,28.39,57,0,7.2,MP,1705890853
563,nikolayevsk-on-amure,53.1406,140.73,-20.01,74,16,0.37,RU,1705890854
564,xiva,41.3783,60.3639,-3.01,41,3,3.04,UZ,1705890855
565,caconda,-13.7333,15.0667,15.1,94,98,0.99,AO,1705890855
566,fortuna,40.5982,-124.1573,14.64,88,75,8.23,US,1705890856
567,katsuren-haebaru,26.3369,127.8719,20.22,60,100,7.2,JP,1705890857
568,acajutla,13.5928,-89.8275,25.97,63,11,3.57,SV,1705890858
569,la passe,45.5549,-0.8967,10.55,77,78,6.7,FR,1705890859
570,bull savanna,17.8868,-77.5902,23.77,70,6,3.8,JM,1705890860
571,zeya,53.75,127.2667,-30.29,93,63,0.75,RU,1705890861
572,homer,59.6425,-151.5483,-7.07,73,100,7.15,US,1705890862
573,chibougamau,49.9168,-74.3659,-14.21,85,100,5.66,CA,1705890739
574,sferracavallo,42.726,12.0956,4.13,33,0,0.79,IT,1705890864
575,konstantinovka,49.6167,127.9833,-28.67,94,87,2.13,RU,1705890864
576,saudarkrokur,65.7461,-19.6394,-9.33,93,100,0.59,IS,1705890865
577,quelimane,-17.8786,36.8883,23.97,100,40,2.06,MZ,1705890866
578,playa del ingles,27.7567,-15.5787,18.86,60,2,0.45,ES,1705890729
579,yinchuan,38.4681,106.2731,-11.74,33,74,2.2,CN,1705890867
580,beni,0.5,29.4667,18.01,58,92,1.19,CD,1705890868
581,yemetsk,63.4721,41.7941,-11.78,95,100,3.25,RU,1705890869
582,burewala,30.1667,72.65,11.42,29,93,2.5,PK,1705890870
583,severo-yeniseyskiy,60.3725,93.0408,-19.12,96,100,2.24,RU,1705890871
584,selfoss,63.9331,-20.9971,-7.86,76,100,6.72,IS,1705890871
585,smidovich,48.6,133.8167,-17.46,89,100,3.54,RU,1705890872
586,priozersk,61.0393,30.1291,-3.28,85,100,5.7,RU,1705890873
587,orchard homes,46.8633,-114.0484,2.0,88,100,0.89,US,1705890874
588,tarawa,1.419,172.984,32.05,70,40,3.09,KI,1705890875
589,senillosa,-39.0,-68.4167,30.88,27,0,6.55,AR,1705890876
590,podporozh'ye,60.9112,34.1706,-6.69,93,100,4.87,RU,1705890801
591,golyshmanovo,56.3979,68.3728,-8.77,79,100,7.26,RU,1705890878
592,mezhdurechenskiy,59.6,65.9333,-6.63,90,100,6.26,RU,1705890879
593,fort bragg,35.139,-79.006,-1.72,61,0,0.0,US,1705890879
594,kurumkan,54.3,110.3,-24.93,89,93,1.79,RU,1705890880
595,ovalle,-30.5983,-71.2003,23.24,54,0,1.69,CL,1705890552
596,hurricane,37.1753,-113.2899,8.26,90,100,0.52,US,1705890882
597,nadym,65.5333,72.5167,-8.73,94,100,8.26,RU,1705890883
598,kailua-kona,19.6406,-155.9956,26.98,73,100,3.6,US,1705890884
599,jaru,-10.4389,-62.4664,23.79,95,68,0.98,BR,1705890886
600,peace river,56.2501,-117.286,-16.83,78,100,3.6,CA,1705890887
601,kiamba,5.9894,124.6242,28.96,72,100,2.01,PH,1705890888
602,port erin,54.0849,-4.751,8.93,71,75,17.16,IM,1705890889
603,le vauclin,14.5452,-60.8388,26.49,76,6,7.37,MQ,1705890889
604,abashiri,44.0213,144.2697,-3.84,74,75,0.51,JP,1705890890
605,saldanha,-33.0117,17.9442,18.03,86,94,12.05,ZA,1705890891
606,kitimat,54.0524,-128.6534,-0.79,97,100,1.34,CA,1705890891
607,mersing,2.4312,103.8405,26.95,83,40,2.57,MY,1705890892
608,remire-montjoly,4.9167,-52.2667,27.02,83,75,4.12,GF,1705890893
609,pajan,-1.5667,-80.4167,24.93,92,98,1.09,EC,1705890893
610,songyang,34.4553,113.0281,-5.33,32,49,3.42,CN,1705890894
611,novosergiyevka,52.0934,53.6528,-20.16,99,97,2.41,RU,1705890895
612,mao,39.8885,4.2658,8.31,87,100,2.06,ES,1705890896
613,kijang,35.2442,129.2139,1.85,51,32,6.78,KR,1705890896
614,tura,25.5198,90.2201,17.79,44,2,0.41,IN,1705890897
615,bardai,11.65,7.2333,16.1,15,5,4.13,NG,1705890898
